{
  "entries": [
  {
    "ID": 1,
    "name": "The Squiggle",
    "latitude": 36.99318732,
    "longitude": -122.065164,
    "description": "Stand on the wave of the horizon and the icon of West campus.",
    "discovered": 1,
    "rarity": 0
  },
  {
    "ID": 2,
    "name": "Porter Koi Pond",
    "latitude": 36.99413468,
    "longitude": -122.0652298,
    "description": "Legends say a starving Porter resident had to make a tough choice here.",
    "discovered": 1,
    "rarity": 1
  },
  {
    "ID": 3,
    "name": "Solitary Garden",
    "latitude": 36.9942047,
    "longitude": -122.0601648,
    "description": "What's growing is not what he asked for.- But it's thriving.",
    "discovered": 1,
    "rarity": 2
  },
  {
    "ID": 4,
    "name": "Painted Barrels",
    "latitude": 37.01001182,
    "longitude": -122.0662185,
    "description": "Watch the murals change and stay up to date with the newest wave of artists.",
    "discovered": 1,
    "rarity": 3
  },
  {
    "ID": 5,
    "name": "Budha Shrine",
    "latitude": 37.00661915,
    "longitude": -122.0600713,
    "description": "There's one rule: bring an offering.",
    "discovered": 1,
    "rarity": 4
  },
  {
    "ID": 6,
    "name": "Tree 9",
    "latitude": 37.00469735,
    "longitude": -122.0600572,
    "description": "",
    "discovered": 1,
    "rarity": 5
  },
  {
    "ID": 7,
    "name": "Cat's Cradle",
    "latitude": 37.00690654,
    "longitude": -122.0567996,
    "description": "Meow.",
    "discovered": 0,
    "rarity": 0
  },
  {
    "ID": 8,
    "name": "Porter Caves",
    "latitude": 0.0,
    "longitude": 0.0,
    "description": "Don't go when it's wet but do go when it's lit. ",
    "discovered": 0,
    "rarity": 0
  },
  {
    "ID": 9,
    "name": "Kiln Edge",
    "latitude": 36.99860812,
    "longitude": -122.0585194,
    "description": "Less about what the ruins are from and more about how that bench got there.",
    "discovered": 0,
    "rarity": 0
  },
  {
    "ID": 10,
    "name": "Witch's Hut",
    "latitude": 36.9949435,
    "longitude": -122.0562839,
    "description": "You must knock before entering.- Don't ring. ",
    "discovered": 0,
    "rarity": 0
  },
  {
    "ID": 11,
    "name": "Stickdomes",
    "latitude": 36.9983927,
    "longitude": -122.0632352,
    "description": "Three stick houses are just asking for a big bad wolf.",
    "discovered": 0,
    "rarity": 0
  },
  {
    "ID": 12,
    "name": "The Frames",
    "latitude": 36.9958052,
    "longitude": -122.0605262,
    "description": "Stop and reevaluate things before you decide to study.",
    "discovered": 0,
    "rarity": 0
  },
  {
    "ID": 13,
    "name": "Fishbowl",
    "latitude": 36.9962923,
    "longitude": -122.0559728,
    "description": "",
    "discovered": 0,
    "rarity": 0
  },
  {
    "ID": 14,
    "name": "Field's End",
    "latitude": 36.9938793,
    "longitude": -122.0583469,
    "description": "Sometimes we all need to cry in the corner.",
    "discovered": 0,
    "rarity": 0
  },
  {
    "ID": 15,
    "name": "The Red Table",
    "latitude": 36.9929956,
    "longitude": -122.0565609,
    "description": "The old redwood likes to eavesdrop when friends gather here to talk. ",
    "discovered": 0,
    "rarity": 0
  },
  {
    "ID": 16,
    "name": "Cow Palace",
    "latitude": 36.9911822,
    "longitude": -122.0566115,
    "description": "Pull up a chair and hide from the sun.",
    "discovered": 0,
    "rarity": 0
  },
  {
    "ID": 17,
    "name": "The Net",
    "latitude": 36.9899348,
    "longitude": -122.0617026,
    "description": "Do you trust in new experiences or doubt in old rope?",
    "discovered": 0,
    "rarity": 0
  },
  {
    "ID": 18,
    "name": "Coyote Den",
    "latitude": 36.9910263,
    "longitude": -122.0620145,
    "description": "Secrets here have been written long before they were spoken.",
    "discovered": 0,
    "rarity": 0
  },
  {
    "ID": 19,
    "name": "Bushback",
    "latitude": 36.9911058,
    "longitude": -122.0612014,
    "description": "Moonlight here illuminates your partner before anything else.",
    "discovered": 0,
    "rarity": 0
  },
  {
    "ID": 20,
    "name": "Party Grounds",
    "latitude": 36.9957252,
    "longitude": -122.0642846,
    "description": "Kick dirt, mull around, and watch out for traffic.",
    "discovered": 0,
    "rarity": 0
  },
  {
    "ID": 21,
    "name": "The Commune",
    "latitude": 36.9995985,
    "longitude": -122.0658426,
    "description": "There comes a time when you need to act like a hippie.",
    "discovered": 0,
    "rarity": 0
  },
  {
    "ID": 22,
    "name": "Balance Beam",
    "latitude": 37.0017454,
    "longitude": -122.063544,
    "description": "It's more trustworthy to sit. ",
    "discovered": 0,
    "rarity": 0
  },
  {
    "ID": 23,
    "name": "High Chair",
    "latitude": 37.0030469,
    "longitude": -122.0603693,
    "description": "Who today is the king of the hill?",
    "discovered": 0,
    "rarity": 0
  },
  {
    "ID": 24,
    "name": "Underbrige",
    "latitude": 36.9960173,
    "longitude": -122.0576592,
    "description": "The people above have more important things to do.",
    "discovered": 0,
    "rarity": 0
  },
  {
    "ID": 25,
    "name": "Wild Koi Pond",
    "latitude": 37.00019613,
    "longitude": -122.0482659,
    "description": "Does freedom to a cage matter to it's contents?",
    "discovered": 0,
    "rarity": 0
  }
]}